[
  {
    "lon": 2.2959049047131748,
    "lat": 48.8751498187932,
    "nom_gares": "Charles De Gaulle-Étoile",
    "station_id": "0055",
    "line_number": "1",
    "is_end": "False",
    "connection": " 0"
  },
  {
    "lon": 2.2959049047131748,
    "lat": 48.8751498187932,
    "nom_gares": "Charles De Gaulle-Étoile",
    "station_id": "0056",
    "line_number": "2",
    "is_end": "False",
    "connection": "0"
  },
  {
    "lon": 2.2959049047131748,
    "lat": 48.8751498187932,
    "nom_gares": "Charles De Gaulle-Étoile",
    "station_id": "0057",
    "line_number": "6",
    "is_end": "True",
    "connection": "0"
  },
  {
    "lon": 2.343285978923923,
    "lat": 48.8531679839561,
    "nom_gares": "Saint-Michel",
    "station_id": "0330",
    "line_number": "4",
    "is_end": "False",
    "connection": "0"
  },
  {
    "lon": 2.395554512170687,
    "lat": 48.84757936654253,
    "nom_gares": "Nation",
    "station_id": "0212",
    "line_number": "1",
    "is_end": "False",
    "connection": "0"
  },
  {
    "lon": 2.395554512170687,
    "lat": 48.84757936654253,
    "nom_gares": "Nation",
    "station_id": "0213",
    "line_number": "2",
    "is_end": "True",
    "connection": "0"
  },
  {
    "lon": 2.395554512170687,
    "lat": 48.84757936654253,
    "nom_gares": "Nation",
    "station_id": "0214",
    "line_number": "6",
    "is_end": "True",
    "connection": "0"
  },
  {
    "lon": 2.395554512170687,
    "lat": 48.84757936654253,
    "nom_gares": "Nation",
    "station_id": "0215",
    "line_number": "9",
    "is_end": "False",
    "connection": "0"
  },
  {
    "lon": 2.37673072170184,
    "lat": 48.872283107993574,
    "nom_gares": "Belleville",
    "station_id": "0020",
    "line_number": "11",
    "is_end": "False",
    "connection": "0"
  },
  {
    "lon": 2.37673072170184,
    "lat": 48.872283107993574,
    "nom_gares": "Belleville",
    "station_id": "0021",
    "line_number": "2",
    "is_end": "False",
    "connection": "0"
  },
  {
    "lon": 2.401927284511546,
    "lat": 48.85197520839108,
    "nom_gares": "Buzenval",
    "station_id": "0042",
    "line_number": "9",
    "is_end": "False",
    "connection": "0"
  },
  {
    "lon": 2.3585662563494663,
    "lat": 48.835152534806205,
    "nom_gares": "Campo Formio",
    "station_id": "0046",
    "line_number": "5",
    "is_end": "False",
    "connection": "0"
  },
  {
    "lon": 2.3561539474503386,
    "lat": 48.87262083899373,
    "nom_gares": "Château d'Eau",
    "station_id": "0065",
    "line_number": "4",
    "is_end": "False",
    "connection": "0"
  },
  {
    "lon": 2.296231386803388,
    "lat": 48.837099427289054,
    "nom_gares": "Convention",
    "station_id": "0080",
    "line_number": "12",
    "is_end": "False",
    "connection": "0"
  },
  {
    "lon": 2.3719331286142937,
    "lat": 48.883193320365734,
    "nom_gares": "Jaurès",
    "station_id": "0142",
    "line_number": "2",
    "is_end": "False",
    "connection": "0"
  },
  {
    "lon": 2.3719331286142937,
    "lat": 48.883193320365734,
    "nom_gares": "Jaurès",
    "station_id": "0143",
    "line_number": "5",
    "is_end": "False",
    "connection": "0"
  },
  {
    "lon": 2.3719331286142937,
    "lat": 48.883193320365734,
    "nom_gares": "Jaurès",
    "station_id": "0144",
    "line_number": "7bis",
    "is_end": "False",
    "connection": "0"
  },
  {
    "lon": 2.3087738359558063,
    "lat": 48.88032518553965,
    "nom_gares": "Monceau",
    "station_id": "0204",
    "line_number": "2",
    "is_end": "False",
    "connection": "0"
  },
  {
    "lon": 2.367372038565468,
    "lat": 48.88432566211362,
    "nom_gares": "Stalingrad",
    "station_id": "0339",
    "line_number": "2",
    "is_end": "False",
    "connection": "0"
  },
  {
    "lon": 2.367372038565468,
    "lat": 48.88432566211362,
    "nom_gares": "Stalingrad",
    "station_id": "0340",
    "line_number": "5",
    "is_end": "False",
    "connection": "0"
  },
  {
    "lon": 2.367372038565468,
    "lat": 48.88432566211362,
    "nom_gares": "Stalingrad",
    "station_id": "0341",
    "line_number": "7",
    "is_end": "False",
    "connection": "0"
  },
  {
    "lon": 2.3064034857365163,
    "lat": 48.85489056594407,
    "nom_gares": "École Militaire",
    "station_id": "0371",
    "line_number": "8",
    "is_end": "False",
    "connection": "0"
  },
  {
    "lon": 2.338857159453805,
    "lat": 48.872190907714405,
    "nom_gares": "Richelieu-Drouot",
    "station_id": "0298",
    "line_number": "8",
    "is_end": "False",
    "connection": "0"
  },
  {
    "lon": 2.338857159453805,
    "lat": 48.872190907714405,
    "nom_gares": "Richelieu-Drouot",
    "station_id": "0299",
    "line_number": "9",
    "is_end": "False",
    "connection": "0"
  },
  {
    "lon": 2.3333796724221587,
    "lat": 48.88355628923431,
    "nom_gares": "Blanche",
    "station_id": "0027",
    "line_number": "2",
    "is_end": "False",
    "connection": "0"
  },
  {
    "lon": 2.3538187935928794,
    "lat": 48.86940219572108,
    "nom_gares": "Strasbourg-Saint-Denis",
    "station_id": "0342",
    "line_number": "4",
    "is_end": "False",
    "connection": "0"
  },
  {
    "lon": 2.3538187935928794,
    "lat": 48.86940219572108,
    "nom_gares": "Strasbourg-Saint-Denis",
    "station_id": "0343",
    "line_number": "8",
    "is_end": "False",
    "connection": "0"
  },
  {
    "lon": 2.3538187935928794,
    "lat": 48.86940219572108,
    "nom_gares": "Strasbourg-Saint-Denis",
    "station_id": "0344",
    "line_number": "9",
    "is_end": "False",
    "connection": "0"
  },
  {
    "lon": 2.249792769009765,
    "lat": 48.88813847667783,
    "nom_gares": "Esplanade de la Défense",
    "station_id": "0102",
    "line_number": "1",
    "is_end": "False",
    "connection": "0"
  },
  {
    "lon": 2.388566870479196,
    "lat": 48.87949310699919,
    "nom_gares": "Botzaris",
    "station_id": "0034",
    "line_number": "7bis",
    "is_end": "False",
    "connection": "0"
  },
  {
    "lon": 2.341376051143573,
    "lat": 48.86865415090181,
    "nom_gares": "Bourse",
    "station_id": "0038",
    "line_number": "3",
    "is_end": "False",
    "connection": "0"
  },
  {
    "lon": 2.3744959662604246,
    "lat": 48.88066746252183,
    "nom_gares": "Bolivar",
    "station_id": "0031",
    "line_number": "7bis",
    "is_end": "False",
    "connection": "0"
  },
  {
    "lon": 2.300991003495584,
    "lat": 48.864766844037305,
    "nom_gares": "Alma-Marceau",
    "station_id": "0002",
    "line_number": "9",
    "is_end": "False",
    "connection": "0"
  },
  {
    "lon": 2.3922212225351163,
    "lat": 48.90378388011768,
    "nom_gares": "Aubervilliers Pantin - Quatre Chemins",
    "station_id": "0010",
    "line_number": "7",
    "is_end": "False",
    "connection": "0"
  },
  {
    "lon": 2.269135872742879,
    "lat": 48.847150053875964,
    "nom_gares": "Église d'Auteuil",
    "station_id": "0373",
    "line_number": "10",
    "is_end": "False",
    "connection": "0"
  },
  {
    "lon": 2.440439978057246,
    "lat": 48.844456393634566,
    "nom_gares": "Château de Vincennes",
    "station_id": "0066",
    "line_number": "1",
    "is_end": "True",
    "connection": "0"
  },
  {
    "lon": 2.3480365654004007,
    "lat": 48.85763140976555,
    "nom_gares": "Chatelet",
    "station_id": "0067",
    "line_number": "1",
    "is_end": "False",
    "connection": "0"
  },
  {
    "lon": 2.3480365654004007,
    "lat": 48.85763140976555,
    "nom_gares": "Chatelet",
    "station_id": "0068",
    "line_number": "11",
    "is_end": "True",
    "connection": "0"
  },
  {
    "lon": 2.3480365654004007,
    "lat": 48.85763140976555,
    "nom_gares": "Chatelet",
    "station_id": "0069",
    "line_number": "14",
    "is_end": "False",
    "connection": "0"
  },
  {
    "lon": 2.3480365654004007,
    "lat": 48.85763140976555,
    "nom_gares": "Chatelet",
    "station_id": "0070",
    "line_number": "4",
    "is_end": "False",
    "connection": "0"
  },
  {
    "lon": 2.3480365654004007,
    "lat": 48.85763140976555,
    "nom_gares": "Chatelet",
    "station_id": "0071",
    "line_number": "7",
    "is_end": "False",
    "connection": "0"
  },
  {
    "lon": 2.3708113953127445,
    "lat": 48.877610186483444,
    "nom_gares": "Colonel Fabien",
    "station_id": "0075",
    "line_number": "2",
    "is_end": "False",
    "connection": "0"
  },
  {
    "lon": 2.322943412243541,
    "lat": 48.86628580364943,
    "nom_gares": "Concorde",
    "station_id": "0077",
    "line_number": "1",
    "is_end": "False",
    "connection": "0"
  },
  {
    "lon": 2.322943412243541,
    "lat": 48.86628580364943,
    "nom_gares": "Concorde",
    "station_id": "0078",
    "line_number": "12",
    "is_end": "False",
    "connection": "0"
  },
  {
    "lon": 2.322943412243541,
    "lat": 48.86628580364943,
    "nom_gares": "Concorde",
    "station_id": "0079",
    "line_number": "8",
    "is_end": "False",
    "connection": "0"
  },
  {
    "lon": 2.3496175641598396,
    "lat": 48.863972477882776,
    "nom_gares": "Étienne Marcel",
    "station_id": "0375",
    "line_number": "4",
    "is_end": "False",
    "connection": "0"
  },
  {
    "lon": 2.2681767494233305,
    "lat": 48.852504090577646,
    "nom_gares": "Jasmin",
    "station_id": "0141",
    "line_number": "9",
    "is_end": "False",
    "connection": "0"
  },
  {
    "lon": 2.3549179837074035,
    "lat": 48.846151121246784,
    "nom_gares": "Jussieu",
    "station_id": "0148",
    "line_number": "10",
    "is_end": "False",
    "connection": "0"
  },
  {
    "lon": 2.3549179837074035,
    "lat": 48.846151121246784,
    "nom_gares": "Jussieu",
    "station_id": "0149",
    "line_number": "7",
    "is_end": "False",
    "connection": "0"
  },
  {
    "lon": 2.349815453218361,
    "lat": 48.89146499939834,
    "nom_gares": "Marcadet-Poissonniers",
    "station_id": "0191",
    "line_number": "12",
    "is_end": "False",
    "connection": "0"
  },
  {
    "lon": 2.349815453218361,
    "lat": 48.89146499939834,
    "nom_gares": "Marcadet-Poissonniers",
    "station_id": "0192",
    "line_number": "4",
    "is_end": "False",
    "connection": "0"
  },
  {
    "lon": 2.314743542030632,
    "lat": 48.873733164672636,
    "nom_gares": "Miromesnil",
    "station_id": "0202",
    "line_number": "13",
    "is_end": "False",
    "connection": "0"
  },
  {
    "lon": 2.314743542030632,
    "lat": 48.873733164672636,
    "nom_gares": "Miromesnil",
    "station_id": "0203",
    "line_number": "9",
    "is_end": "False",
    "connection": "0"
  },
  {
    "lon": 2.3257796748068915,
    "lat": 48.88718394593143,
    "nom_gares": "La Fourche",
    "station_id": "0153",
    "line_number": "13",
    "is_end": "False",
    "connection": "0"
  },
  {
    "lon": 2.272238940611056,
    "lat": 48.881016496556725,
    "nom_gares": "Les Sablons",
    "station_id": "0166",
    "line_number": "1",
    "is_end": "False",
    "connection": "0"
  },
  {
    "lon": 2.3842896009608205,
    "lat": 48.81052080334999,
    "nom_gares": "Mairie d'Ivry",
    "station_id": "0179",
    "line_number": "7",
    "is_end": "True",
    "connection": "1"
  },
  {
    "lon": 2.387835956453657,
    "lat": 48.86218374694281,
    "nom_gares": "Père Lachaise",
    "station_id": "0284",
    "line_number": "2",
    "is_end": "False",
    "connection": "0"
  },
  {
    "lon": 2.387835956453657,
    "lat": 48.86218374694281,
    "nom_gares": "Père Lachaise",
    "station_id": "0285",
    "line_number": "3",
    "is_end": "False",
    "connection": "0"
  },
  {
    "lon": 2.362856399519012,
    "lat": 48.83321671877524,
    "nom_gares": "Nationale",
    "station_id": "0216",
    "line_number": "6",
    "is_end": "False",
    "connection": "0"
  },
  {
    "lon": 2.3772672015137384,
    "lat": 48.815930762121624,
    "nom_gares": "Pierre et Marie Curie",
    "station_id": "0237",
    "line_number": "7",
    "is_end": "False",
    "connection": "1"
  },
  {
    "lon": 2.393056091960662,
    "lat": 48.876806388278496,
    "nom_gares": "Place des Fêtes",
    "station_id": "0247",
    "line_number": "11",
    "is_end": "False",
    "connection": "0"
  },
  {
    "lon": 2.393056091960662,
    "lat": 48.876806388278496,
    "nom_gares": "Place des Fêtes",
    "station_id": "0248",
    "line_number": "7bis",
    "is_end": "False",
    "connection": "0"
  },
  {
    "lon": 2.337495844533764,
    "lat": 48.876047495071,
    "nom_gares": "Notre-Dame-de-Lorette",
    "station_id": "0217",
    "line_number": "12",
    "is_end": "False",
    "connection": "0"
  },
  {
    "lon": 2.368011378256502,
    "lat": 48.865019008102834,
    "nom_gares": "Oberkampf",
    "station_id": "0219",
    "line_number": "5",
    "is_end": "False",
    "connection": "0"
  },
  {
    "lon": 2.368011378256502,
    "lat": 48.865019008102834,
    "nom_gares": "Oberkampf",
    "station_id": "0220",
    "line_number": "9",
    "is_end": "False",
    "connection": "0"
  },
  {
    "lon": 2.314122323459022,
    "lat": 48.83182564955102,
    "nom_gares": "Plaisance",
    "station_id": "0249",
    "line_number": "13",
    "is_end": "False",
    "connection": "0"
  },
  {
    "lon": 2.3095314914609446,
    "lat": 48.845626965812635,
    "nom_gares": "Sèvres-Lecourbe",
    "station_id": "0348",
    "line_number": "6",
    "is_end": "False",
    "connection": "0"
  },
  {
    "lon": 2.3474307799602045,
    "lat": 48.89434384790808,
    "nom_gares": "Simplon",
    "station_id": "0337",
    "line_number": "4",
    "is_end": "False",
    "connection": "0"
  },
  {
    "lon": 2.3719139801008366,
    "lat": 48.859873622536846,
    "nom_gares": "Richard Lenoir",
    "station_id": "0297",
    "line_number": "5",
    "is_end": "False",
    "connection": "0"
  },
  {
    "lon": 2.3728257245425715,
    "lat": 48.83704511922334,
    "nom_gares": "Quai de la Gare",
    "station_id": "0287",
    "line_number": "6",
    "is_end": "False",
    "connection": "0"
  },
  {
    "lon": 2.336232756868916,
    "lat": 48.86963799595273,
    "nom_gares": "Quatre Septembre",
    "station_id": "0289",
    "line_number": "3",
    "is_end": "False",
    "connection": "0"
  },
  {
    "lon": 2.330754192086215,
    "lat": 48.838964279775986,
    "nom_gares": "Raspail",
    "station_id": "0292",
    "line_number": "4",
    "is_end": "False",
    "connection": "0"
  },
  {
    "lon": 2.330754192086215,
    "lat": 48.838964279775986,
    "nom_gares": "Raspail",
    "station_id": "0293",
    "line_number": "6",
    "is_end": "False",
    "connection": "0"
  },
  {
    "lon": 2.3650748610827637,
    "lat": 48.86799910798849,
    "nom_gares": "République",
    "station_id": "0311",
    "line_number": "11",
    "is_end": "False",
    "connection": "0"
  },
  {
    "lon": 2.3650748610827637,
    "lat": 48.86799910798849,
    "nom_gares": "République",
    "station_id": "0312",
    "line_number": "3",
    "is_end": "False",
    "connection": "0"
  },
  {
    "lon": 2.3650748610827637,
    "lat": 48.86799910798849,
    "nom_gares": "République",
    "station_id": "0313",
    "line_number": "5",
    "is_end": "False",
    "connection": "0"
  },
  {
    "lon": 2.3650748610827637,
    "lat": 48.86799910798849,
    "nom_gares": "République",
    "station_id": "0314",
    "line_number": "8",
    "is_end": "False",
    "connection": "0"
  },
  {
    "lon": 2.3650748610827637,
    "lat": 48.86799910798849,
    "nom_gares": "République",
    "station_id": "0315",
    "line_number": "9",
    "is_end": "False",
    "connection": "0"
  },
  {
    "lon": 2.422983216145875,
    "lat": 48.85572642769865,
    "nom_gares": "Robespierre",
    "station_id": "0301",
    "line_number": "9",
    "is_end": "False",
    "connection": "0"
  },
  {
    "lon": 2.3560357941727963,
    "lat": 48.929935888744524,
    "nom_gares": "Saint-Denis - Porte de Paris",
    "station_id": "0318",
    "line_number": "13",
    "is_end": "False",
    "connection": "1"
  },
  {
    "lon": 2.404514942379104,
    "lat": 48.87210144119713,
    "nom_gares": "Saint-Fargeau",
    "station_id": "0320",
    "line_number": "3bis",
    "is_end": "False",
    "connection": "0"
  },
  {
    "lon": 2.3371351933438995,
    "lat": 48.83290081472565,
    "nom_gares": "Saint-Jacques",
    "station_id": "0324",
    "line_number": "6",
    "is_end": "False",
    "connection": "0"
  },
  {
    "lon": 2.324353041157966,
    "lat": 48.84373548838398,
    "nom_gares": "Montparnasse Bienvenüe",
    "station_id": "0206",
    "line_number": "12",
    "is_end": "False",
    "connection": "0"
  },
  {
    "lon": 2.324353041157966,
    "lat": 48.84373548838398,
    "nom_gares": "Montparnasse Bienvenüe",
    "station_id": "0207",
    "line_number": "13",
    "is_end": "False",
    "connection": "0"
  },
  {
    "lon": 2.324353041157966,
    "lat": 48.84373548838398,
    "nom_gares": "Montparnasse Bienvenüe",
    "station_id": "0208",
    "line_number": "4",
    "is_end": "False",
    "connection": "0"
  },
  {
    "lon": 2.324353041157966,
    "lat": 48.84373548838398,
    "nom_gares": "Montparnasse Bienvenüe",
    "station_id": "0209",
    "line_number": "6",
    "is_end": "False",
    "connection": " 0"
  },
  {
    "lon": 2.331830837962409,
    "lat": 48.90609404931435,
    "nom_gares": "Garibaldi",
    "station_id": "0126",
    "line_number": "13",
    "is_end": "False",
    "connection": "1"
  },
  {
    "lon": 2.402352143900472,
    "lat": 48.89122859226912,
    "nom_gares": "Hoche",
    "station_id": "0134",
    "line_number": "5",
    "is_end": "False",
    "connection": "0"
  },
  {
    "lon": 2.2932406499473132,
    "lat": 48.87126214352652,
    "nom_gares": "Kléber",
    "station_id": "0150",
    "line_number": "6",
    "is_end": "False",
    "connection": "0"
  },
  {
    "lon": 2.43450989592394,
    "lat": 48.8091443609007,
    "nom_gares": "Maisons-Alfort-Stade",
    "station_id": "0186",
    "line_number": "8",
    "is_end": "False",
    "connection": "0"
  },
  {
    "lon": 2.330700709954214,
    "lat": 48.85107136943748,
    "nom_gares": "Saint-Sulpice",
    "station_id": "0334",
    "line_number": "4",
    "is_end": "False",
    "connection": "0"
  },
  {
    "lon": 2.285335094686168,
    "lat": 48.869798555526245,
    "nom_gares": "Victor Hugo",
    "station_id": "0362",
    "line_number": "2",
    "is_end": "False",
    "connection": "0"
  },
  {
    "lon": 2.3090522645504783,
    "lat": 48.88289191651976,
    "nom_gares": "Malesherbes",
    "station_id": "0189",
    "line_number": "3",
    "is_end": "False",
    "connection": "0"
  },
  {
    "lon": 2.4003104030250766,
    "lat": 48.832736700820156,
    "nom_gares": "Porte de Charenton",
    "station_id": "0265",
    "line_number": "8",
    "is_end": "False",
    "connection": "0"
  },
  {
    "lon": 2.3757479832156028,
    "lat": 48.82999019896456,
    "nom_gares": "Bibliothèque François Mitterrand",
    "station_id": "0024",
    "line_number": "14",
    "is_end": "False",
    "connection": "0"
  },
  {
    "lon": 2.3651848119933803,
    "lat": 48.84243679699021,
    "nom_gares": "Gare d'Austerlitz",
    "station_id": "0117",
    "line_number": "10",
    "is_end": "True",
    "connection": "0"
  },
  {
    "lon": 2.3651848119933803,
    "lat": 48.84243679699021,
    "nom_gares": "Gare d'Austerlitz",
    "station_id": "0118",
    "line_number": "5",
    "is_end": "False",
    "connection": "0"
  },
  {
    "lon": 2.373774422563834,
    "lat": 48.845868977751635,
    "nom_gares": "Gare de Lyon",
    "station_id": "0119",
    "line_number": "1",
    "is_end": "False",
    "connection": "0"
  },
  {
    "lon": 2.373774422563834,
    "lat": 48.845868977751635,
    "nom_gares": "Gare de Lyon",
    "station_id": "0120",
    "line_number": "14",
    "is_end": "False",
    "connection": "0"
  },
  {
    "lon": 2.3346631501197574,
    "lat": 48.9132020942236,
    "nom_gares": "Mairie de Saint-Ouen",
    "station_id": "0182",
    "line_number": "13",
    "is_end": "False",
    "connection": "1"
  },
  {
    "lon": 2.3346631501197574,
    "lat": 48.9132020942236,
    "nom_gares": "Mairie de Saint-Ouen",
    "station_id": "391",
    "line_number": "14",
    "is_end": "True",
    "connection": "0"
  },
  {
    "lon": 2.3275430817269704,
    "lat": 48.873513388661024,
    "nom_gares": "Havre-Caumartin",
    "station_id": "0132",
    "line_number": "3",
    "is_end": "False",
    "connection": "0"
  },
  {
    "lon": 2.3275430817269704,
    "lat": 48.873513388661024,
    "nom_gares": "Havre-Caumartin",
    "station_id": "0133",
    "line_number": "9",
    "is_end": "False",
    "connection": "0"
  },
  {
    "lon": 2.3139151192031537,
    "lat": 48.860028457267546,
    "nom_gares": "Invalides",
    "station_id": "0137",
    "line_number": "13",
    "is_end": "False",
    "connection": "0"
  },
  {
    "lon": 2.3139151192031537,
    "lat": 48.860028457267546,
    "nom_gares": "Invalides",
    "station_id": "0138",
    "line_number": "8",
    "is_end": "False",
    "connection": "0"
  },
  {
    "lon": 2.3896255399759543,
    "lat": 48.85216836871572,
    "nom_gares": "Rue des Boulets",
    "station_id": "0307",
    "line_number": "9",
    "is_end": "False",
    "connection": "0"
  },
  {
    "lon": 2.2850095013824134,
    "lat": 48.892082785032315,
    "nom_gares": "Anatole France",
    "station_id": "0004",
    "line_number": "3",
    "is_end": "False",
    "connection": "0"
  },
  {
    "lon": 2.3687365726261684,
    "lat": 48.85343696136713,
    "nom_gares": "Bastille",
    "station_id": "0016",
    "line_number": "1",
    "is_end": "False",
    "connection": "0"
  },
  {
    "lon": 2.3687365726261684,
    "lat": 48.85343696136713,
    "nom_gares": "Bastille",
    "station_id": "0017",
    "line_number": "5",
    "is_end": "False",
    "connection": "0"
  },
  {
    "lon": 2.3687365726261684,
    "lat": 48.85343696136713,
    "nom_gares": "Bastille",
    "station_id": "0018",
    "line_number": "8",
    "is_end": "False",
    "connection": "0"
  },
  {
    "lon": 2.4009185367798023,
    "lat": 48.841338248197566,
    "nom_gares": "Bel-Air",
    "station_id": "0019",
    "line_number": "6",
    "is_end": "False",
    "connection": "0"
  },
  {
    "lon": 2.380542586000036,
    "lat": 48.869091161091255,
    "nom_gares": "Couronnes",
    "station_id": "0086",
    "line_number": "2",
    "is_end": "False",
    "connection": "0"
  },
  {
    "lon": 2.3866324020669847,
    "lat": 48.83333855831707,
    "nom_gares": "Cour Saint-Émilion",
    "station_id": "0084",
    "line_number": "14",
    "is_end": "False",
    "connection": "0"
  },
  {
    "lon": 2.396182886452632,
    "lat": 48.839445427444936,
    "nom_gares": "Daumesnil",
    "station_id": "0093",
    "line_number": "6",
    "is_end": "False",
    "connection": "0"
  },
  {
    "lon": 2.396182886452632,
    "lat": 48.839445427444936,
    "nom_gares": "Daumesnil",
    "station_id": "0094",
    "line_number": "8",
    "is_end": "False",
    "connection": "0"
  },
  {
    "lon": 2.2936124371878024,
    "lat": 48.85043454807889,
    "nom_gares": "Dupleix",
    "station_id": "0098",
    "line_number": "6",
    "is_end": "False",
    "connection": "0"
  },
  {
    "lon": 2.301678555482428,
    "lat": 48.81074648584623,
    "nom_gares": "Châtillon-Montrouge",
    "station_id": "0072",
    "line_number": "13",
    "is_end": "True",
    "connection": "0"
  },
  {
    "lon": 2.3681263304132094,
    "lat": 48.83494772231993,
    "nom_gares": "Chevaleret",
    "station_id": "0062",
    "line_number": "6",
    "is_end": "False",
    "connection": "0"
  },
  {
    "lon": 2.293951963648717,
    "lat": 48.844794762777255,
    "nom_gares": "Commerce",
    "station_id": "0076",
    "line_number": "8",
    "is_end": "False",
    "connection": "0"
  },
  {
    "lon": 2.398746593442591,
    "lat": 48.86516343394703,
    "nom_gares": "Gambetta",
    "station_id": "0115",
    "line_number": "3",
    "is_end": "False",
    "connection": "0"
  },
  {
    "lon": 2.398746593442591,
    "lat": 48.86516343394703,
    "nom_gares": "Gambetta",
    "station_id": "0116",
    "line_number": "3bis",
    "is_end": "True",
    "connection": "0"
  },
  {
    "lon": 2.317852783041331,
    "lat": 48.84447014036132,
    "nom_gares": "Falguière",
    "station_id": "0106",
    "line_number": "12",
    "is_end": "False",
    "connection": "0"
  },
  {
    "lon": 2.2941620153942783,
    "lat": 48.86479406396573,
    "nom_gares": "Iéna",
    "station_id": "0139",
    "line_number": "9",
    "is_end": "False",
    "connection": "0"
  },
  {
    "lon": 2.344764611738356,
    "lat": 48.89241892201138,
    "nom_gares": "Jules Joffrin",
    "station_id": "0147",
    "line_number": "12",
    "is_end": "False",
    "connection": "0"
  },
  {
    "lon": 2.4060891618687723,
    "lat": 48.8527251192356,
    "nom_gares": "Maraîchers",
    "station_id": "0190",
    "line_number": "9",
    "is_end": "False",
    "connection": "0"
  },
  {
    "lon": 2.3599957663946203,
    "lat": 48.89048545381225,
    "nom_gares": "Marx Dormoy",
    "station_id": "0194",
    "line_number": "12",
    "is_end": "False",
    "connection": "0"
  },
  {
    "lon": 2.261623492404885,
    "lat": 48.84524756452023,
    "nom_gares": "Michel Ange-Molitor",
    "station_id": "0198",
    "line_number": "10",
    "is_end": "False",
    "connection": "0"
  },
  {
    "lon": 2.261623492404885,
    "lat": 48.84524756452023,
    "nom_gares": "Michel Ange-Molitor",
    "station_id": "0199",
    "line_number": "9",
    "is_end": "False",
    "connection": "0"
  },
  {
    "lon": 2.341108591634066,
    "lat": 48.86080629033762,
    "nom_gares": "Louvre-Rivoli",
    "station_id": "0173",
    "line_number": "1",
    "is_end": "False",
    "connection": "0"
  },
  {
    "lon": 2.3859131742732753,
    "lat": 48.88685693056751,
    "nom_gares": "Ourcq",
    "station_id": "0226",
    "line_number": "5",
    "is_end": "False",
    "connection": "0"
  },
  {
    "lon": 2.3128127748369014,
    "lat": 48.84267681904916,
    "nom_gares": "Pasteur",
    "station_id": "0231",
    "line_number": "12",
    "is_end": "False",
    "connection": "0"
  },
  {
    "lon": 2.3128127748369014,
    "lat": 48.84267681904916,
    "nom_gares": "Pasteur",
    "station_id": "0232",
    "line_number": "6",
    "is_end": "False",
    "connection": "0"
  },
  {
    "lon": 2.3522247281830833,
    "lat": 48.842866829748104,
    "nom_gares": "Place Monge",
    "station_id": "0241",
    "line_number": "7",
    "is_end": "False",
    "connection": "0"
  },
  {
    "lon": 2.3314939870870903,
    "lat": 48.87130850207131,
    "nom_gares": "Opéra",
    "station_id": "0223",
    "line_number": "3",
    "is_end": "False",
    "connection": "0"
  },
  {
    "lon": 2.3314939870870903,
    "lat": 48.87130850207131,
    "nom_gares": "Opéra",
    "station_id": "0224",
    "line_number": "7",
    "is_end": "False",
    "connection": "0"
  },
  {
    "lon": 2.3314939870870903,
    "lat": 48.87130850207131,
    "nom_gares": "Opéra",
    "station_id": "0225",
    "line_number": "8",
    "is_end": "False",
    "connection": "0"
  },
  {
    "lon": 2.411894837056435,
    "lat": 48.85377278708037,
    "nom_gares": "Porte de Montreuil",
    "station_id": "0269",
    "line_number": "9",
    "is_end": "False",
    "connection": "0"
  },
  {
    "lon": 2.360956490023828,
    "lat": 48.85523625186787,
    "nom_gares": "Saint-Paul",
    "station_id": "0331",
    "line_number": "1",
    "is_end": "False",
    "connection": "0"
  },
  {
    "lon": 2.391784450963432,
    "lat": 48.888417477833464,
    "nom_gares": "Porte de Pantin",
    "station_id": "0270",
    "line_number": "5",
    "is_end": "False",
    "connection": "0"
  },
  {
    "lon": 2.25712222983262,
    "lat": 48.83796121350173,
    "nom_gares": "Porte de Saint-Cloud",
    "station_id": "0271",
    "line_number": "9",
    "is_end": "False",
    "connection": "0"
  },
  {
    "lon": 2.305534669653894,
    "lat": 48.827795542560736,
    "nom_gares": "Porte de Vanves",
    "station_id": "0273",
    "line_number": "13",
    "is_end": "False",
    "connection": "0"
  },
  {
    "lon": 2.35970521674602,
    "lat": 48.81922334867439,
    "nom_gares": "Porte d'Italie",
    "station_id": "0260",
    "line_number": "7",
    "is_end": "False",
    "connection": "1"
  },
  {
    "lon": 2.3344377148655506,
    "lat": 48.865737865732086,
    "nom_gares": "Pyramides",
    "station_id": "0281",
    "line_number": "14",
    "is_end": "False",
    "connection": "0"
  },
  {
    "lon": 2.3344377148655506,
    "lat": 48.865737865732086,
    "nom_gares": "Pyramides",
    "station_id": "0282",
    "line_number": "7",
    "is_end": "False",
    "connection": "0"
  },
  {
    "lon": 2.270109138941893,
    "lat": 48.85548504946991,
    "nom_gares": "Ranelagh",
    "station_id": "0291",
    "line_number": "9",
    "is_end": "False",
    "connection": "0"
  },
  {
    "lon": 2.3513589155329915,
    "lat": 48.866496342855754,
    "nom_gares": "Réaumur Sébastopol",
    "station_id": "0309",
    "line_number": "3",
    "is_end": "False",
    "connection": "0"
  },
  {
    "lon": 2.3513589155329915,
    "lat": 48.866496342855754,
    "nom_gares": "Réaumur Sébastopol",
    "station_id": "0310",
    "line_number": "4",
    "is_end": "False",
    "connection": "0"
  },
  {
    "lon": 2.3337761382184663,
    "lat": 48.853718933065686,
    "nom_gares": "Saint-Germain-des-Prés",
    "station_id": "0323",
    "line_number": "4",
    "is_end": "False",
    "connection": "0"
  },
  {
    "lon": 2.3797418931775534,
    "lat": 48.86428575771083,
    "nom_gares": "Rue Saint-Maur",
    "station_id": "0305",
    "line_number": "3",
    "is_end": "False",
    "connection": "0"
  },
  {
    "lon": 2.2875801625296517,
    "lat": 48.86361093671121,
    "nom_gares": "Trocadéro",
    "station_id": "0354",
    "line_number": "6",
    "is_end": "False",
    "connection": "0"
  },
  {
    "lon": 2.2875801625296517,
    "lat": 48.86361093671121,
    "nom_gares": "Trocadéro",
    "station_id": "0355",
    "line_number": "9",
    "is_end": "False",
    "connection": "0"
  },
  {
    "lon": 2.3197403132985555,
    "lat": 48.818676408977936,
    "nom_gares": "Mairie de Montrouge",
    "station_id": "420",
    "line_number": "4",
    "is_end": "False",
    "connection": "0"
  },
  {
    "lon": 2.344847748752398,
    "lat": 48.89740222196378,
    "nom_gares": "Porte de Clignancourt",
    "station_id": "0268",
    "line_number": "4",
    "is_end": "True",
    "connection": "0"
  },
  {
    "lon": 2.359507868815593,
    "lat": 48.89724528715874,
    "nom_gares": "Porte de la Chapelle",
    "station_id": "0276",
    "line_number": "12",
    "is_end": "False",
    "connection": "0"
  },
  {
    "lon": 2.358047505360746,
    "lat": 48.876126352014495,
    "nom_gares": "Gare de l'Est",
    "station_id": "0121",
    "line_number": "4",
    "is_end": "False",
    "connection": "0"
  },
  {
    "lon": 2.358047505360746,
    "lat": 48.876126352014495,
    "nom_gares": "Gare de l'Est",
    "station_id": "0122",
    "line_number": "5",
    "is_end": "False",
    "connection": "0"
  },
  {
    "lon": 2.358047505360746,
    "lat": 48.876126352014495,
    "nom_gares": "Gare de l'Est",
    "station_id": "0123",
    "line_number": "7",
    "is_end": "False",
    "connection": "0"
  },
  {
    "lon": 2.337949775692069,
    "lat": 48.884594207093436,
    "nom_gares": "Abbesses",
    "station_id": "0000",
    "line_number": "12",
    "is_end": "False",
    "connection": "0"
  },
  {
    "lon": 2.320998191954084,
    "lat": 48.860786962592236,
    "nom_gares": "Assemblée Nationale",
    "station_id": "0009",
    "line_number": "12",
    "is_end": "False",
    "connection": "0"
  },
  {
    "lon": 2.3510084614060256,
    "lat": 48.85745183080862,
    "nom_gares": "Hôtel de Ville",
    "station_id": "0135",
    "line_number": "1",
    "is_end": "False",
    "connection": "0"
  },
  {
    "lon": 2.3510084614060256,
    "lat": 48.85745183080862,
    "nom_gares": "Hôtel de Ville",
    "station_id": "0136",
    "line_number": "11",
    "is_end": "False",
    "connection": "0"
  },
  {
    "lon": 2.298464191958534,
    "lat": 48.822583706802426,
    "nom_gares": "Malakoff - Plateau de Vanves",
    "station_id": "0187",
    "line_number": "13",
    "is_end": "False",
    "connection": "0"
  },
  {
    "lon": 2.3643787411797477,
    "lat": 48.8811921181366,
    "nom_gares": "Louis Blanc",
    "station_id": "0169",
    "line_number": "7",
    "is_end": "False",
    "connection": "0"
  },
  {
    "lon": 2.3643787411797477,
    "lat": 48.8811921181366,
    "nom_gares": "Louis Blanc",
    "station_id": "0170",
    "line_number": "7bis",
    "is_end": "True",
    "connection": "0"
  },
  {
    "lon": 2.3585513482022034,
    "lat": 48.82218265762191,
    "nom_gares": "Maison Blanche",
    "station_id": "0184",
    "line_number": "7",
    "is_end": "False",
    "connection": "0"
  },
  {
    "lon": 2.2983103737615282,
    "lat": 48.87797270048515,
    "nom_gares": "Ternes",
    "station_id": "0351",
    "line_number": "2",
    "is_end": "False",
    "connection": "0"
  },
  {
    "lon": 2.3734568878525493,
    "lat": 48.88796756081547,
    "nom_gares": "Riquet",
    "station_id": "0300",
    "line_number": "7",
    "is_end": "False",
    "connection": "0"
  },
  {
    "lon": 2.2577446803632024,
    "lat": 48.84797154056247,
    "nom_gares": "Porte d'Auteuil",
    "station_id": "0259",
    "line_number": "10",
    "is_end": "False",
    "connection": "0"
  },
  {
    "lon": 2.2831622422302287,
    "lat": 48.87755125086984,
    "nom_gares": "Porte Maillot",
    "station_id": "0258",
    "line_number": "1",
    "is_end": "False",
    "connection": "0"
  },
  {
    "lon": 2.3127919615012913,
    "lat": 48.894980809790994,
    "nom_gares": "Porte de Clichy",
    "station_id": "0267",
    "line_number": "13",
    "is_end": "False",
    "connection": "2"
  },
  {
    "lon": 2.3127919615012913,
    "lat": 48.894980809790994,
    "nom_gares": "Porte de Clichy",
    "station_id": "390",
    "line_number": "14",
    "is_end": "False",
    "connection": "0"
  },
  {
    "lon": 2.3619653022299594,
    "lat": 48.87844429946005,
    "nom_gares": "Château-Landon",
    "station_id": "0063",
    "line_number": "7",
    "is_end": "False",
    "connection": "0"
  },
  {
    "lon": 2.3040703912187595,
    "lat": 48.87932978774786,
    "nom_gares": "Courcelles",
    "station_id": "0085",
    "line_number": "2",
    "is_end": "False",
    "connection": "0"
  },
  {
    "lon": 2.449412805145807,
    "lat": 48.7966821340621,
    "nom_gares": "Créteil–L’Échat",
    "station_id": "0091",
    "line_number": "8",
    "is_end": "False",
    "connection": "0"
  },
  {
    "lon": 2.3770904390888754,
    "lat": 48.89090644862382,
    "nom_gares": "Crimée",
    "station_id": "0087",
    "line_number": "7",
    "is_end": "False",
    "connection": "0"
  },
  {
    "lon": 2.35160647530219,
    "lat": 48.84023383539418,
    "nom_gares": "Censier-Daubenton",
    "station_id": "0049",
    "line_number": "7",
    "is_end": "False",
    "connection": "0"
  },
  {
    "lon": 2.349559430194617,
    "lat": 48.88671096710697,
    "nom_gares": "Château Rouge",
    "station_id": "0064",
    "line_number": "4",
    "is_end": "False",
    "connection": "0"
  },
  {
    "lon": 2.3344562913768514,
    "lat": 48.87280447497173,
    "nom_gares": "Chaussée d'Antin - La Fayette",
    "station_id": "0059",
    "line_number": "7",
    "is_end": "False",
    "connection": " 0"
  },
  {
    "lon": 2.3344562913768514,
    "lat": 48.87280447497173,
    "nom_gares": "Chaussée d'Antin - La Fayette",
    "station_id": "0060",
    "line_number": "9",
    "is_end": "False",
    "connection": "0"
  },
  {
    "lon": 2.382160158371537,
    "lat": 48.89465585739898,
    "nom_gares": "Corentin Cariou",
    "station_id": "0082",
    "line_number": "7",
    "is_end": "False",
    "connection": "0"
  },
  {
    "lon": 2.298625127144873,
    "lat": 48.849575212975026,
    "nom_gares": "La Motte Picquet-Grenelle",
    "station_id": "0154",
    "line_number": "10",
    "is_end": "False",
    "connection": "0"
  },
  {
    "lon": 2.298625127144873,
    "lat": 48.849575212975026,
    "nom_gares": "La Motte Picquet-Grenelle",
    "station_id": "0155",
    "line_number": "6",
    "is_end": "False",
    "connection": "0"
  },
  {
    "lon": 2.298625127144873,
    "lat": 48.849575212975026,
    "nom_gares": "La Motte Picquet-Grenelle",
    "station_id": "0156",
    "line_number": "8",
    "is_end": "False",
    "connection": "0"
  },
  {
    "lon": 2.3285301398903795,
    "lat": 48.88399982396176,
    "nom_gares": "Place de Clichy",
    "station_id": "0245",
    "line_number": "13",
    "is_end": "False",
    "connection": "0"
  },
  {
    "lon": 2.3285301398903795,
    "lat": 48.88399982396176,
    "nom_gares": "Place de Clichy",
    "station_id": "0246",
    "line_number": "2",
    "is_end": "False",
    "connection": "0"
  },
  {
    "lon": 2.321801731063168,
    "lat": 48.88233342277264,
    "nom_gares": "Rome",
    "station_id": "0302",
    "line_number": "2",
    "is_end": "False",
    "connection": "0"
  },
  {
    "lon": 2.359366296360598,
    "lat": 48.93677678897849,
    "nom_gares": "Basilique de Saint-Denis",
    "station_id": "0015",
    "line_number": "13",
    "is_end": "False",
    "connection": "1"
  },
  {
    "lon": 2.237436786980606,
    "lat": 48.83173796343587,
    "nom_gares": "Billancourt",
    "station_id": "0025",
    "line_number": "9",
    "is_end": "False",
    "connection": "0"
  },
  {
    "lon": 2.2783302598660233,
    "lat": 48.836295300607894,
    "nom_gares": "Balard",
    "station_id": "0240",
    "line_number": "8",
    "is_end": "True",
    "connection": "0"
  },
  {
    "lon": 2.384699760132843,
    "lat": 48.85509449354248,
    "nom_gares": "Charonne",
    "station_id": "0058",
    "line_number": "9",
    "is_end": "False",
    "connection": "0"
  },
  {
    "lon": 2.3173602968975313,
    "lat": 48.803489717990644,
    "nom_gares": "Bagneux - Lucie Aubrac",
    "station_id": "376",
    "line_number": "4",
    "is_end": "True",
    "connection": "0"
  },
  {
    "lon": 2.3317401309853487,
    "lat": 48.83345085727892,
    "nom_gares": "Denfert-Rochereau",
    "station_id": "0095",
    "line_number": "4",
    "is_end": "False",
    "connection": "0"
  },
  {
    "lon": 2.3317401309853487,
    "lat": 48.83345085727892,
    "nom_gares": "Denfert-Rochereau",
    "station_id": "0096",
    "line_number": "6",
    "is_end": "False",
    "connection": "0"
  },
  {
    "lon": 2.357633204680053,
    "lat": 48.880195486201494,
    "nom_gares": "Gare du Nord",
    "station_id": "0124",
    "line_number": "4",
    "is_end": "False",
    "connection": "0"
  },
  {
    "lon": 2.357633204680053,
    "lat": 48.880195486201494,
    "nom_gares": "Gare du Nord",
    "station_id": "0125",
    "line_number": "5",
    "is_end": "False",
    "connection": "0"
  },
  {
    "lon": 2.3946756547920454,
    "lat": 48.856228090321636,
    "nom_gares": "Alexandre Dumas",
    "station_id": "0001",
    "line_number": "2",
    "is_end": "False",
    "connection": "0"
  },
  {
    "lon": 2.3979973148307456,
    "lat": 48.85190531802241,
    "nom_gares": "Avron",
    "station_id": "0012",
    "line_number": "2",
    "is_end": "False",
    "connection": "0"
  },
  {
    "lon": 2.4131329383427076,
    "lat": 48.821897938499944,
    "nom_gares": "Charenton-Écoles",
    "station_id": "0053",
    "line_number": "8",
    "is_end": "False",
    "connection": "0"
  },
  {
    "lon": 2.3272198679191276,
    "lat": 48.89220682681276,
    "nom_gares": "Guy Môquet",
    "station_id": "0131",
    "line_number": "13",
    "is_end": "False",
    "connection": "1"
  },
  {
    "lon": 2.3787169232246446,
    "lat": 48.884970561831835,
    "nom_gares": "Laumière",
    "station_id": "0160",
    "line_number": "5",
    "is_end": "False",
    "connection": "0"
  },
  {
    "lon": 2.2596084727525714,
    "lat": 48.842412769424165,
    "nom_gares": "Exelmans",
    "station_id": "0104",
    "line_number": "9",
    "is_end": "False",
    "connection": "0"
  },
  {
    "lon": 2.3147210047461946,
    "lat": 48.881094426231876,
    "nom_gares": "Villiers",
    "station_id": "0366",
    "line_number": "2",
    "is_end": "False",
    "connection": "0"
  },
  {
    "lon": 2.3147210047461946,
    "lat": 48.881094426231876,
    "nom_gares": "Villiers",
    "station_id": "0367",
    "line_number": "3",
    "is_end": "False",
    "connection": "0"
  },
  {
    "lon": 2.348491131078988,
    "lat": 48.87059047707668,
    "nom_gares": "Bonne Nouvelle",
    "station_id": "0032",
    "line_number": "8",
    "is_end": "False",
    "connection": "0"
  },
  {
    "lon": 2.348491131078988,
    "lat": 48.87059047707668,
    "nom_gares": "Bonne Nouvelle",
    "station_id": "0033",
    "line_number": "9",
    "is_end": "False",
    "connection": "0"
  },
  {
    "lon": 2.317449187923372,
    "lat": 48.809703996598586,
    "nom_gares": "Barbara",
    "station_id": "377",
    "line_number": "4",
    "is_end": "False",
    "connection": "0"
  },
  {
    "lon": 2.3777414811061086,
    "lat": 48.90808243688599,
    "nom_gares": "Aimé Césaire",
    "station_id": "378",
    "line_number": "12",
    "is_end": "False",
    "connection": "0"
  },
  {
    "lon": 2.2879457664873772,
    "lat": 48.84109405631434,
    "nom_gares": "Boucicaut",
    "station_id": "0035",
    "line_number": "8",
    "is_end": "False",
    "connection": "0"
  },
  {
    "lon": 2.2388873271530727,
    "lat": 48.842005346355,
    "nom_gares": "Boulogne - Jean Jaurès",
    "station_id": "0036",
    "line_number": "10",
    "is_end": "False",
    "connection": "0"
  },
  {
    "lon": 2.228536981491631,
    "lat": 48.8407450151916,
    "nom_gares": "Boulogne - Pont de Saint-Cloud",
    "station_id": "0037",
    "line_number": "10",
    "is_end": "True",
    "connection": "0"
  },
  {
    "lon": 2.2900588335804866,
    "lat": 48.86698310851503,
    "nom_gares": "Boissière",
    "station_id": "0030",
    "line_number": "6",
    "is_end": "False",
    "connection": "0"
  },
  {
    "lon": 2.3271646496078233,
    "lat": 48.82818847537889,
    "nom_gares": "Alésia",
    "station_id": "0003",
    "line_number": "4",
    "is_end": "False",
    "connection": "0"
  },
  {
    "lon": 2.295019130476361,
    "lat": 48.84699703040198,
    "nom_gares": "Avenue Émile Zola",
    "station_id": "0011",
    "line_number": "10",
    "is_end": "False",
    "connection": "0"
  },
  {
    "lon": 2.429205166347999,
    "lat": 48.84547070664901,
    "nom_gares": "Bérault",
    "station_id": "0043",
    "line_number": "1",
    "is_end": "False",
    "connection": "0"
  },
  {
    "lon": 2.3940123983593633,
    "lat": 48.881816107252455,
    "nom_gares": "Danube",
    "station_id": "0092",
    "line_number": "7bis",
    "is_end": "False",
    "connection": "0"
  },
  {
    "lon": 2.32017475715155,
    "lat": 48.89058718567746,
    "nom_gares": "Brochant",
    "station_id": "0039",
    "line_number": "13",
    "is_end": "False",
    "connection": "2"
  },
  {
    "lon": 2.2859992220590066,
    "lat": 48.846534635796644,
    "nom_gares": "Charles Michels",
    "station_id": "0054",
    "line_number": "10",
    "is_end": "False",
    "connection": "0"
  },
  {
    "lon": 2.3435116577497754,
    "lat": 48.831129547092026,
    "nom_gares": "Glacière",
    "station_id": "0128",
    "line_number": "6",
    "is_end": "False",
    "connection": "0"
  },
  {
    "lon": 2.3710948397312004,
    "lat": 48.86995751176857,
    "nom_gares": "Goncourt",
    "station_id": "0129",
    "line_number": "11",
    "is_end": "False",
    "connection": "0"
  },
  {
    "lon": 2.322491748462238,
    "lat": 48.83863164530258,
    "nom_gares": "Gaité",
    "station_id": "0113",
    "line_number": "13",
    "is_end": "False",
    "connection": "0"
  },
  {
    "lon": 2.322265213130597,
    "lat": 48.878770366653185,
    "nom_gares": "Europe",
    "station_id": "0103",
    "line_number": "3",
    "is_end": "False",
    "connection": "0"
  },
  {
    "lon": 2.3840922100556665,
    "lat": 48.85017786186515,
    "nom_gares": "Faidherbe Chaligny",
    "station_id": "0105",
    "line_number": "8",
    "is_end": "False",
    "connection": "0"
  },
  {
    "lon": 2.2919124133178745,
    "lat": 48.84274677885832,
    "nom_gares": "Félix Faure",
    "station_id": "0111",
    "line_number": "8",
    "is_end": "False",
    "connection": "0"
  },
  {
    "lon": 2.3614002104327767,
    "lat": 48.870396388290395,
    "nom_gares": "Jacques Bonsergent",
    "station_id": "0140",
    "line_number": "5",
    "is_end": "False",
    "connection": "0"
  },
  {
    "lon": 2.389415032035527,
    "lat": 48.87511181602157,
    "nom_gares": "Jourdain",
    "station_id": "0146",
    "line_number": "11",
    "is_end": "False",
    "connection": "0"
  },
  {
    "lon": 2.2435786287393293,
    "lat": 48.83362878011957,
    "nom_gares": "Marcel Sembat",
    "station_id": "0193",
    "line_number": "9",
    "is_end": "False",
    "connection": "0"
  },
  {
    "lon": 2.3622633871273484,
    "lat": 48.810129956339246,
    "nom_gares": "Le Kremlin-Bicêtre",
    "station_id": "0161",
    "line_number": "7",
    "is_end": "False",
    "connection": "2"
  },
  {
    "lon": 2.3405759820437195,
    "lat": 48.874971744608764,
    "nom_gares": "Le Peletier",
    "station_id": "0162",
    "line_number": "7",
    "is_end": "False",
    "connection": "0"
  },
  {
    "lon": 2.3525422662627014,
    "lat": 48.83593030194427,
    "nom_gares": "Les Gobelins",
    "station_id": "0164",
    "line_number": "7",
    "is_end": "False",
    "connection": "0"
  },
  {
    "lon": 2.2880836330485033,
    "lat": 48.888706018840786,
    "nom_gares": "Louise Michel",
    "station_id": "0171",
    "line_number": "3",
    "is_end": "False",
    "connection": "0"
  },
  {
    "lon": 2.3368784003341987,
    "lat": 48.8628296709713,
    "nom_gares": "Palais Royal - Musée du Louvre",
    "station_id": "0227",
    "line_number": "1",
    "is_end": "False",
    "connection": "0"
  },
  {
    "lon": 2.3368784003341987,
    "lat": 48.8628296709713,
    "nom_gares": "Palais Royal - Musée du Louvre",
    "station_id": "0228",
    "line_number": "7",
    "is_end": "False",
    "connection": "0"
  },
  {
    "lon": 2.3745819699964117,
    "lat": 48.86525378511986,
    "nom_gares": "Parmentier",
    "station_id": "0229",
    "line_number": "3",
    "is_end": "False",
    "connection": "0"
  },
  {
    "lon": 2.3186164144253834,
    "lat": 48.83422588174329,
    "nom_gares": "Pernety",
    "station_id": "0234",
    "line_number": "13",
    "is_end": "False",
    "connection": "0"
  },
  {
    "lon": 2.3297050126201837,
    "lat": 48.83111265944071,
    "nom_gares": "Mouton-Duvernet",
    "station_id": "0210",
    "line_number": "4",
    "is_end": "False",
    "connection": "0"
  },
  {
    "lon": 2.3287780268900797,
    "lat": 48.8449426324914,
    "nom_gares": "Notre-Dame-des-Champs",
    "station_id": "0218",
    "line_number": "12",
    "is_end": "False",
    "connection": "0"
  },
  {
    "lon": 2.3645319531092004,
    "lat": 48.81987622012246,
    "nom_gares": "Porte de Choisy",
    "station_id": "0266",
    "line_number": "7",
    "is_end": "False",
    "connection": "1"
  },
  {
    "lon": 2.3261023128241898,
    "lat": 48.85103175030478,
    "nom_gares": "Sèvres-Babylone",
    "station_id": "0346",
    "line_number": "10",
    "is_end": "False",
    "connection": "0"
  },
  {
    "lon": 2.3261023128241898,
    "lat": 48.85103175030478,
    "nom_gares": "Sèvres-Babylone",
    "station_id": "0347",
    "line_number": "12",
    "is_end": "False",
    "connection": "0"
  },
  {
    "lon": 2.361524965507838,
    "lat": 48.85162059003447,
    "nom_gares": "Sully-Morland",
    "station_id": "0345",
    "line_number": "7",
    "is_end": "False",
    "connection": "0"
  },
  {
    "lon": 2.3988675966256006,
    "lat": 48.87547445574476,
    "nom_gares": "Télégraphe",
    "station_id": "0357",
    "line_number": "11",
    "is_end": "False",
    "connection": "0"
  },
  {
    "lon": 2.4067292455430898,
    "lat": 48.87711051082896,
    "nom_gares": "Porte des Lilas",
    "station_id": "0278",
    "line_number": "11",
    "is_end": "False",
    "connection": "0"
  },
  {
    "lon": 2.4067292455430898,
    "lat": 48.87711051082896,
    "nom_gares": "Porte des Lilas",
    "station_id": "0279",
    "line_number": "3bis",
    "is_end": "True",
    "connection": "0"
  },
  {
    "lon": 2.3277821284985802,
    "lat": 48.84845784851418,
    "nom_gares": "Rennes",
    "station_id": "0294",
    "line_number": "12",
    "is_end": "False",
    "connection": "0"
  },
  {
    "lon": 2.385243715115071,
    "lat": 48.84717990913505,
    "nom_gares": "Reuilly-Diderot",
    "station_id": "0295",
    "line_number": "1",
    "is_end": "False",
    "connection": "0"
  },
  {
    "lon": 2.385243715115071,
    "lat": 48.84717990913505,
    "nom_gares": "Reuilly-Diderot",
    "station_id": "0296",
    "line_number": "8",
    "is_end": "False",
    "connection": "0"
  },
  {
    "lon": 2.337857510381017,
    "lat": 48.87817339012215,
    "nom_gares": "Saint-Georges",
    "station_id": "0322",
    "line_number": "12",
    "is_end": "False",
    "connection": "0"
  },
  {
    "lon": 2.368269540049694,
    "lat": 48.79648308361576,
    "nom_gares": "Villejuif Paul Vaillant-Couturier",
    "station_id": "0365",
    "line_number": "7",
    "is_end": "False",
    "connection": "2"
  },
  {
    "lon": 2.3243805554289114,
    "lat": 48.87515128697581,
    "nom_gares": "Saint-Lazare",
    "station_id": "0325",
    "line_number": "12",
    "is_end": "False",
    "connection": "0"
  },
  {
  "lon": 2.3243805554289114,
  "lat": 48.87515128697581,
  "nom_gares": "Saint-Lazare",
  "station_id": "400",
  "line_number": "14",
  "is_end": "False",
  "connection": "0"
},
  {
    "lon": 2.3243805554289114,
    "lat": 48.87515128697581,
    "nom_gares": "Saint-Lazare",
    "station_id": "0326",
    "line_number": "13",
    "is_end": "False",
    "connection": "0"
  },
  {
    "lon": 2.3243805554289114,
    "lat": 48.87515128697581,
    "nom_gares": "Saint-Lazare",
    "station_id": "0327",
    "line_number": "3",
    "is_end": "False",
    "connection": "0"
  },
  {
    "lon": 2.313545549946741,
    "lat": 48.867905343962654,
    "nom_gares": "Champs-Élysées – Clemenceau",
    "station_id": "0050",
    "line_number": "1",
    "is_end": "False",
    "connection": "0"
  },
  {
    "lon": 2.313545549946741,
    "lat": 48.867905343962654,
    "nom_gares": "Champs-Élysées – Clemenceau",
    "station_id": "0051",
    "line_number": "13",
    "is_end": "False",
    "connection": "0"
  },
  {
    "lon": 2.41669727284764,
    "lat": 48.86533531722583,
    "nom_gares": "Galliéni",
    "station_id": "0114",
    "line_number": "3",
    "is_end": "True",
    "connection": "0"
  },
  {
    "lon": 2.410598616469425,
    "lat": 48.920785968128676,
    "nom_gares": "La Courneuve 8 Mai 1945",
    "station_id": "0152",
    "line_number": "7",
    "is_end": "True",
    "connection": "0"
  },
  {
    "lon": 2.3835991095736566,
    "lat": 48.86644680513255,
    "nom_gares": "Ménilmontant",
    "station_id": "0211",
    "line_number": "2",
    "is_end": "False",
    "connection": "0"
  },
  {
    "lon": 2.441521809411031,
    "lat": 48.86229941188523,
    "nom_gares": "Mairie de Montreuil",
    "station_id": "0181",
    "line_number": "9",
    "is_end": "True",
    "connection": "0"
  },
  {
    "lon": 2.2605150792517,
    "lat": 48.88470820039658,
    "nom_gares": "Pont de Neuilly",
    "station_id": "0252",
    "line_number": "1",
    "is_end": "False",
    "connection": "0"
  },
  {
    "lon": 2.342232759368107,
    "lat": 48.8585538254322,
    "nom_gares": "Pont Neuf",
    "station_id": "0255",
    "line_number": "7",
    "is_end": "False",
    "connection": "0"
  },
  {
    "lon": 2.3739435082451816,
    "lat": 48.86147646279582,
    "nom_gares": "Saint-Ambroise",
    "station_id": "0316",
    "line_number": "9",
    "is_end": "False",
    "connection": "0"
  },
  {
    "lon": 2.418759786698671,
    "lat": 48.8464230763525,
    "nom_gares": "Saint-Mandé",
    "station_id": "0328",
    "line_number": "1",
    "is_end": "False",
    "connection": "0"
  },
  {
    "lon": 2.3572456507586854,
    "lat": 48.82642600994104,
    "nom_gares": "Tolbiac",
    "station_id": "0352",
    "line_number": "7",
    "is_end": "False",
    "connection": " 0"
  },
  {
    "lon": 2.317005235737245,
    "lat": 48.84698910520499,
    "nom_gares": "Duroc",
    "station_id": "0099",
    "line_number": "10",
    "is_end": "False",
    "connection": "0"
  },
  {
    "lon": 2.317005235737245,
    "lat": 48.84698910520499,
    "nom_gares": "Duroc",
    "station_id": "0100",
    "line_number": "13",
    "is_end": "False",
    "connection": "0"
  },
  {
    "lon": 2.27941168205042,
    "lat": 48.82708544796182,
    "nom_gares": "Corentin Celton",
    "station_id": "0081",
    "line_number": "12",
    "is_end": "False",
    "connection": "0"
  },
  {
    "lon": 2.273665557499754,
    "lat": 48.82430937015939,
    "nom_gares": "Mairie d'Issy",
    "station_id": "0178",
    "line_number": "12",
    "is_end": "True",
    "connection": "0"
  },
  {
    "lon": 2.3487755574768463,
    "lat": 48.877100184864226,
    "nom_gares": "Poissonnière",
    "station_id": "0250",
    "line_number": "7",
    "is_end": "False",
    "connection": "0"
  },
  {
    "lon": 2.385508387668672,
    "lat": 48.89738989064754,
    "nom_gares": "Porte de la Villette",
    "station_id": "0277",
    "line_number": "7",
    "is_end": "False",
    "connection": "0"
  },
  {
    "lon": 2.4053832106267707,
    "lat": 48.834785157146825,
    "nom_gares": "Porte Dorée",
    "station_id": "0257",
    "line_number": "8",
    "is_end": "False",
    "connection": "0"
  },
  {
    "lon": 2.3331088937605435,
    "lat": 48.8763302640252,
    "nom_gares": "Trinité d'Estienne d'Orves",
    "station_id": "0353",
    "line_number": "12",
    "is_end": "False",
    "connection": "0"
  },
  {
    "lon": 2.3263846107928456,
    "lat": 48.840663228364996,
    "nom_gares": "Edgar Quinet",
    "station_id": "0101",
    "line_number": "6",
    "is_end": "False",
    "connection": "0"
  },
  {
    "lon": 2.3807356063950937,
    "lat": 48.913710544615356,
    "nom_gares": "Mairie d'Aubervilliers",
    "station_id": "379",
    "line_number": "12",
    "is_end": "True",
    "connection": "0"
  },
  {
    "lon": 2.2370180563950135,
    "lat": 48.89218707551516,
    "nom_gares": "La Défense",
    "station_id": "0130",
    "line_number": "1",
    "is_end": "True",
    "connection": "0"
  },
  {
    "lon": 2.370209339755371,
    "lat": 48.8561407102205,
    "nom_gares": "Bréguet-Sabin",
    "station_id": "0040",
    "line_number": "5",
    "is_end": "False",
    "connection": "0"
  },
  {
    "lon": 2.289334532778806,
    "lat": 48.85394260527926,
    "nom_gares": "Bir-Hakeim",
    "station_id": "0026",
    "line_number": "6",
    "is_end": "False",
    "connection": "0"
  },
  {
    "lon": 2.4491899044793355,
    "lat": 48.906374770235026,
    "nom_gares": "Bobigny Pablo Picasso",
    "station_id": "0028",
    "line_number": "5",
    "is_end": "True",
    "connection": "0"
  },
  {
    "lon": 2.3567367567949926,
    "lat": 48.86558647756452,
    "nom_gares": "Arts et Métiers",
    "station_id": "0007",
    "line_number": "11",
    "is_end": "False",
    "connection": "0"
  },
  {
    "lon": 2.3567367567949926,
    "lat": 48.86558647756452,
    "nom_gares": "Arts et Métiers",
    "station_id": "0008",
    "line_number": "3",
    "is_end": "False",
    "connection": "0"
  },
  {
    "lon": 2.350414872010463,
    "lat": 48.82979051275835,
    "nom_gares": "Corvisart",
    "station_id": "0083",
    "line_number": "6",
    "is_end": "False",
    "connection": "0"
  },
  {
    "lon": 2.4223761428456223,
    "lat": 48.81480300606579,
    "nom_gares": "École Vétérinaire de Maisons-Alfort",
    "station_id": "0372",
    "line_number": "8",
    "is_end": "False",
    "connection": "0"
  },
  {
    "lon": 2.3816145119289653,
    "lat": 48.87851411308943,
    "nom_gares": "Buttes-Chaumont",
    "station_id": "0041",
    "line_number": "7bis",
    "is_end": "False",
    "connection": "0"
  },
  {
    "lon": 2.3029682978173134,
    "lat": 48.84750708106227,
    "nom_gares": "Cambronne",
    "station_id": "0045",
    "line_number": "6",
    "is_end": "False",
    "connection": "0"
  },
  {
    "lon": 2.3473213170674256,
    "lat": 48.854936377424146,
    "nom_gares": "Cité",
    "station_id": "0073",
    "line_number": "4",
    "is_end": "False",
    "connection": "0"
  },
  {
    "lon": 2.2946851117025537,
    "lat": 48.91638230898788,
    "nom_gares": "Gabriel Péri",
    "station_id": "0112",
    "line_number": "13",
    "is_end": "False",
    "connection": "2"
  },
  {
    "lon": 2.297077796972984,
    "lat": 48.815307530265535,
    "nom_gares": "Malakoff - Rue Étienne Dolet",
    "station_id": "0188",
    "line_number": "13",
    "is_end": "False",
    "connection": "0"
  },
  {
    "lon": 2.3482087741854683,
    "lat": 48.85008987711798,
    "nom_gares": "Maubert-Mutualité",
    "station_id": "0195",
    "line_number": "10",
    "is_end": "False",
    "connection": "0"
  },
  {
    "lon": 2.2640820307462213,
    "lat": 48.84789564927389,
    "nom_gares": "Michel Ange-Auteuil",
    "station_id": "0196",
    "line_number": "10",
    "is_end": "False",
    "connection": "0"
  },
  {
    "lon": 2.2640820307462213,
    "lat": 48.84789564927389,
    "nom_gares": "Michel Ange-Auteuil",
    "station_id": "0197",
    "line_number": "9",
    "is_end": "False",
    "connection": "0"
  },
  {
    "lon": 2.2727637533161587,
    "lat": 48.8471310072617,
    "nom_gares": "Mirabeau",
    "station_id": "0201",
    "line_number": "10",
    "is_end": "False",
    "connection": "0"
  },
  {
    "lon": 2.405851943981901,
    "lat": 48.82662006452886,
    "nom_gares": "Liberté",
    "station_id": "0167",
    "line_number": "8",
    "is_end": "False",
    "connection": "0"
  },
  {
    "lon": 2.327022200889502,
    "lat": 48.879634759722414,
    "nom_gares": "Liège",
    "station_id": "0168",
    "line_number": "13",
    "is_end": "False",
    "connection": "0"
  },
  {
    "lon": 2.4012890198273475,
    "lat": 48.84506157901035,
    "nom_gares": "Picpus",
    "station_id": "0236",
    "line_number": "6",
    "is_end": "False",
    "connection": "0"
  },
  {
    "lon": 2.35558027407791,
    "lat": 48.830972672053754,
    "nom_gares": "Place d'Italie",
    "station_id": "0242",
    "line_number": "5",
    "is_end": "True",
    "connection": "0"
  },
  {
    "lon": 2.35558027407791,
    "lat": 48.830972672053754,
    "nom_gares": "Place d'Italie",
    "station_id": "0243",
    "line_number": "6",
    "is_end": "False",
    "connection": "0"
  },
  {
    "lon": 2.35558027407791,
    "lat": 48.830972672053754,
    "nom_gares": "Place d'Italie",
    "station_id": "0244",
    "line_number": "7",
    "is_end": "False",
    "connection": "0"
  },
  {
    "lon": 2.2310281002026207,
    "lat": 48.829746119059685,
    "nom_gares": "Pont de Sèvres",
    "station_id": "0253",
    "line_number": "9",
    "is_end": "True",
    "connection": "0"
  },
  {
    "lon": 2.3100189324082727,
    "lat": 48.872045861792856,
    "nom_gares": "Saint-Philippe du Roule",
    "station_id": "0332",
    "line_number": "9",
    "is_end": "False",
    "connection": "0"
  },
  {
    "lon": 2.326792785027681,
    "lat": 48.846878237916876,
    "nom_gares": "Saint-Placide",
    "station_id": "0333",
    "line_number": "4",
    "is_end": "False",
    "connection": "0"
  },
  {
    "lon": 2.328942812768302,
    "lat": 48.89737479549444,
    "nom_gares": "Porte de Saint-Ouen",
    "station_id": "0272",
    "line_number": "13",
    "is_end": "False",
    "connection": "1"
  },
  {
    "lon": 2.369290587346029,
    "lat": 48.82135578287942,
    "nom_gares": "Porte d'Ivry",
    "station_id": "0261",
    "line_number": "7",
    "is_end": "False",
    "connection": "1"
  },
  {
    "lon": 2.3255756362122453,
    "lat": 48.82341162805273,
    "nom_gares": "Porte d'Orléans",
    "station_id": "0262",
    "line_number": "4",
    "is_end": "False",
    "connection": "0"
  },
  {
    "lon": 2.2784416488331485,
    "lat": 48.86394012976092,
    "nom_gares": "Rue de la Pompe",
    "station_id": "0306",
    "line_number": "9",
    "is_end": "False",
    "connection": "0"
  },
  {
    "lon": 2.3609671676988544,
    "lat": 48.838427296033,
    "nom_gares": "Saint-Marcel",
    "station_id": "0329",
    "line_number": "5",
    "is_end": "False",
    "connection": "0"
  },
  {
    "lon": 2.307948677974289,
    "lat": 48.8415055214255,
    "nom_gares": "Volontaires",
    "station_id": "0368",
    "line_number": "12",
    "is_end": "False",
    "connection": "0"
  },
  {
    "lon": 2.3046744405283954,
    "lat": 48.883809200299005,
    "nom_gares": "Wagram",
    "station_id": "0370",
    "line_number": "3",
    "is_end": "False",
    "connection": "0"
  },
  {
    "lon": 2.3150566373170878,
    "lat": 48.856871378314686,
    "nom_gares": "Varenne",
    "station_id": "0359",
    "line_number": "13",
    "is_end": "False",
    "connection": "0"
  },
  {
    "lon": 2.2862795775297817,
    "lat": 48.923103778731836,
    "nom_gares": "Les Agnettes",
    "station_id": "380",
    "line_number": "13",
    "is_end": "False",
    "connection": "2"
  },
  {
    "lon": 2.3678041056034975,
    "lat": 48.78756279201086,
    "nom_gares": "Villejuif - Louis Aragon",
    "station_id": "0363",
    "line_number": "7",
    "is_end": "True",
    "connection": "2"
  },
  {
    "lon": 2.3672108677856154,
    "lat": 48.86116886366122,
    "nom_gares": "Saint-Sébastien-Froissart",
    "station_id": "0335",
    "line_number": "8",
    "is_end": "False",
    "connection": "0"
  },
  {
    "lon": 2.3795540112141405,
    "lat": 48.840001387714224,
    "nom_gares": "Bercy",
    "station_id": "0022",
    "line_number": "14",
    "is_end": "False",
    "connection": "0"
  },
  {
    "lon": 2.3795540112141405,
    "lat": 48.840001387714224,
    "nom_gares": "Bercy",
    "station_id": "0023",
    "line_number": "6",
    "is_end": "False",
    "connection": "0"
  },
  {
    "lon": 2.4253268901662546,
    "lat": 48.89545467211839,
    "nom_gares": "Bobigny-Pantin - Raymond Queneau",
    "station_id": "0029",
    "line_number": "5",
    "is_end": "False",
    "connection": "0"
  },
  {
    "lon": 2.3904821339803877,
    "lat": 48.844065596373376,
    "nom_gares": "Montgallet",
    "station_id": "0205",
    "line_number": "8",
    "is_end": "False",
    "connection": "0"
  },
  {
    "lon": 2.4080310370758147,
    "lat": 48.86460037244116,
    "nom_gares": "Porte de Bagnolet",
    "station_id": "0263",
    "line_number": "3",
    "is_end": "False",
    "connection": "0"
  },
  {
    "lon": 2.2935299663372546,
    "lat": 48.88600615057262,
    "nom_gares": "Porte de Champerret",
    "station_id": "0264",
    "line_number": "3",
    "is_end": "False",
    "connection": "0"
  },
  {
    "lon": 2.2821433781708906,
    "lat": 48.838734857902175,
    "nom_gares": "Lourmel",
    "station_id": "0172",
    "line_number": "8",
    "is_end": "False",
    "connection": "0"
  },
  {
    "lon": 2.3355020517275578,
    "lat": 48.85301676698268,
    "nom_gares": "Mabillon",
    "station_id": "0174",
    "line_number": "10",
    "is_end": "False",
    "connection": "0"
  },
  {
    "lon": 2.3908609523236075,
    "lat": 48.85806226082792,
    "nom_gares": "Philippe Auguste",
    "station_id": "0235",
    "line_number": "2",
    "is_end": "False",
    "connection": "0"
  },
  {
    "lon": 2.2804138122108455,
    "lat": 48.89715409503059,
    "nom_gares": "Pont de Levallois",
    "station_id": "0251",
    "line_number": "3",
    "is_end": "True",
    "connection": "0"
  },
  {
    "lon": 2.3659101068529798,
    "lat": 48.84648464963565,
    "nom_gares": "Quai de la Rapée",
    "station_id": "0288",
    "line_number": "5",
    "is_end": "False",
    "connection": "0"
  },
  {
    "lon": 2.3671730244778457,
    "lat": 48.8271636169609,
    "nom_gares": "Olympiades",
    "station_id": "381",
    "line_number": "14",
    "is_end": "True",
    "connection": "0"
  },
  {
    "lon": 2.445574101030144,
    "lat": 48.803355236116154,
    "nom_gares": "Maisons-Alfort-Les Juilliottes",
    "station_id": "0185",
    "line_number": "8",
    "is_end": "False",
    "connection": "0"
  },
  {
    "lon": 2.2784003863661018,
    "lat": 48.84615720389792,
    "nom_gares": "Javel - André Citroën",
    "station_id": "0145",
    "line_number": "10",
    "is_end": "False",
    "connection": "0"
  },
  {
    "lon": 2.434538451473473,
    "lat": 48.85778351365199,
    "nom_gares": "Croix de Chavaux",
    "station_id": "0088",
    "line_number": "9",
    "is_end": "False",
    "connection": "0"
  },
  {
    "lon": 2.344572482089328,
    "lat": 48.87600859287756,
    "nom_gares": "Cadet",
    "station_id": "0044",
    "line_number": "7",
    "is_end": "False",
    "connection": "0"
  },
  {
    "lon": 2.344561060662729,
    "lat": 48.871256545007405,
    "nom_gares": "Grands Boulevards",
    "station_id": "0303",
    "line_number": "8",
    "is_end": "False",
    "connection": "0"
  },
  {
    "lon": 2.344561060662729,
    "lat": 48.871256545007405,
    "nom_gares": "Grands Boulevards",
    "station_id": "0304",
    "line_number": "9",
    "is_end": "False",
    "connection": "0"
  },
  {
    "lon": 2.3681841149506986,
    "lat": 48.85710325722025,
    "nom_gares": "Chemin Vert",
    "station_id": "0061",
    "line_number": "8",
    "is_end": "False",
    "connection": "0"
  },
  {
    "lon": 2.360399500808731,
    "lat": 48.88439967613092,
    "nom_gares": "La Chapelle",
    "station_id": "0151",
    "line_number": "2",
    "is_end": "False",
    "connection": "0"
  },
  {
    "lon": 2.308607493526255,
    "lat": 48.86943888072466,
    "nom_gares": "Franklin D. Roosevelt",
    "station_id": "0109",
    "line_number": "1",
    "is_end": "False",
    "connection": "0"
  },
  {
    "lon": 2.308607493526255,
    "lat": 48.86943888072466,
    "nom_gares": "Franklin D. Roosevelt",
    "station_id": "0110",
    "line_number": "9",
    "is_end": "False",
    "connection": "0"
  },
  {
    "lon": 2.3442733454213514,
    "lat": 48.85105028137978,
    "nom_gares": "Cluny-La Sorbonne",
    "station_id": "0074",
    "line_number": "10",
    "is_end": "False",
    "connection": "0"
  },
  {
    "lon": 2.2741546297365582,
    "lat": 48.85804605444998,
    "nom_gares": "La Muette",
    "station_id": "0157",
    "line_number": "9",
    "is_end": "False",
    "connection": "0"
  },
  {
    "lon": 2.3457858600391797,
    "lat": 48.86251523404101,
    "nom_gares": "Les Halles",
    "station_id": "0165",
    "line_number": "4",
    "is_end": "False",
    "connection": "0"
  },
  {
    "lon": 2.297724346480177,
    "lat": 48.88489625421614,
    "nom_gares": "Pereire-Levallois",
    "station_id": "0286",
    "line_number": "3",
    "is_end": "False",
    "connection": "0"
  },
  {
    "lon": 2.321743589558778,
    "lat": 48.90449641964034,
    "nom_gares": "Saint-Ouen",
    "station_id": "382",
    "line_number": "14",
    "is_end": "False",
    "connection": "0"
  },
  {
    "lon": 2.2901275088247,
    "lat": 48.875336841182126,
    "nom_gares": "Argentine",
    "station_id": "0006",
    "line_number": "1",
    "is_end": "False",
    "connection": "0"
  },
  {
    "lon": 2.350612999325322,
    "lat": 48.88380394146675,
    "nom_gares": "Barbès-Rochechouart",
    "station_id": "0013",
    "line_number": "2",
    "is_end": "False",
    "connection": "0"
  },
  {
    "lon": 2.350612999325322,
    "lat": 48.88380394146675,
    "nom_gares": "Barbès-Rochechouart",
    "station_id": "0014",
    "line_number": "4",
    "is_end": "False",
    "connection": "0"
  },
  {
    "lon": 2.459363129076404,
    "lat": 48.78000282797376,
    "nom_gares": "Créteil–Préfecture",
    "station_id": "0089",
    "line_number": "8",
    "is_end": "False",
    "connection": "0"
  },
  {
    "lon": 2.4505115282905896,
    "lat": 48.78992046595464,
    "nom_gares": "Créteil-Université",
    "station_id": "0090",
    "line_number": "8",
    "is_end": "False",
    "connection": "0"
  },
  {
    "lon": 2.389620014061438,
    "lat": 48.839041142779394,
    "nom_gares": "Dugommier",
    "station_id": "0097",
    "line_number": "6",
    "is_end": "False",
    "connection": "0"
  },
  {
    "lon": 2.3516232550160123,
    "lat": 48.846656850308115,
    "nom_gares": "Cardinal Lemoine",
    "station_id": "0047",
    "line_number": "10",
    "is_end": "False",
    "connection": "0"
  },
  {
    "lon": 2.342608014423155,
    "lat": 48.919007554283056,
    "nom_gares": "Carrefour Pleyel",
    "station_id": "0048",
    "line_number": "13",
    "is_end": "False",
    "connection": "1"
  },
  {
    "lon": 2.300560451236721,
    "lat": 48.87202380946529,
    "nom_gares": "George V",
    "station_id": "0127",
    "line_number": "1",
    "is_end": "False",
    "connection": "0"
  },
  {
    "lon": 2.366661093353451,
    "lat": 48.863257944024426,
    "nom_gares": "Filles du Calvaire",
    "station_id": "0107",
    "line_number": "8",
    "is_end": "False",
    "connection": "0"
  },
  {
    "lon": 2.4023331645551846,
    "lat": 48.83711700605412,
    "nom_gares": "Michel Bizot",
    "station_id": "0200",
    "line_number": "8",
    "is_end": "False",
    "connection": "0"
  },
  {
    "lon": 2.3105659609468447,
    "lat": 48.85772541195898,
    "nom_gares": "La Tour Maubourg",
    "station_id": "0158",
    "line_number": "8",
    "is_end": "False",
    "connection": "0"
  },
  {
    "lon": 2.338760650528742,
    "lat": 48.889674072959075,
    "nom_gares": "Lamarck-Caulaincourt",
    "station_id": "0159",
    "line_number": "12",
    "is_end": "False",
    "connection": "0"
  },
  {
    "lon": 2.375101033755616,
    "lat": 48.85152370749983,
    "nom_gares": "Ledru Rollin",
    "station_id": "0163",
    "line_number": "8",
    "is_end": "False",
    "connection": "0"
  },
  {
    "lon": 2.325163546827897,
    "lat": 48.87023324246549,
    "nom_gares": "Madeleine",
    "station_id": "0175",
    "line_number": "12",
    "is_end": "False",
    "connection": "0"
  },
  {
    "lon": 2.325163546827897,
    "lat": 48.87023324246549,
    "nom_gares": "Madeleine",
    "station_id": "0176",
    "line_number": "14",
    "is_end": "False",
    "connection": "0"
  },
  {
    "lon": 2.325163546827897,
    "lat": 48.87023324246549,
    "nom_gares": "Madeleine",
    "station_id": "0177",
    "line_number": "8",
    "is_end": "False",
    "connection": "0"
  },
  {
    "lon": 2.306010915009082,
    "lat": 48.90323367785232,
    "nom_gares": "Mairie de Clichy",
    "station_id": "0180",
    "line_number": "13",
    "is_end": "False",
    "connection": "2"
  },
  {
    "lon": 2.4164796436815146,
    "lat": 48.87976125216355,
    "nom_gares": "Mairie des Lilas",
    "station_id": "0183",
    "line_number": "11",
    "is_end": "True",
    "connection": "0"
  },
  {
    "lon": 2.2858124441464076,
    "lat": 48.85744868914132,
    "nom_gares": "Passy",
    "station_id": "0230",
    "line_number": "6",
    "is_end": "False",
    "connection": "0"
  },
  {
    "lon": 2.4015617127425415,
    "lat": 48.868440162341024,
    "nom_gares": "Pelleport",
    "station_id": "0233",
    "line_number": "3bis",
    "is_end": "False",
    "connection": "0"
  },
  {
    "lon": 2.3406130064065036,
    "lat": 48.85193594110045,
    "nom_gares": "Odéon",
    "station_id": "0221",
    "line_number": "10",
    "is_end": "False",
    "connection": "0"
  },
  {
    "lon": 2.3406130064065036,
    "lat": 48.85193594110045,
    "nom_gares": "Odéon",
    "station_id": "0222",
    "line_number": "4",
    "is_end": "False",
    "connection": "0"
  },
  {
    "lon": 2.3571625716183364,
    "lat": 48.85357547156908,
    "nom_gares": "Pont Marie",
    "station_id": "0254",
    "line_number": "7",
    "is_end": "False",
    "connection": "0"
  },
  {
    "lon": 2.30740224061964,
    "lat": 48.847066132217904,
    "nom_gares": "Ségur",
    "station_id": "0349",
    "line_number": "10",
    "is_end": "False",
    "connection": "0"
  },
  {
    "lon": 2.346552336353211,
    "lat": 48.867513024064,
    "nom_gares": "Sentier",
    "station_id": "0336",
    "line_number": "3",
    "is_end": "False",
    "connection": "0"
  },
  {
    "lon": 2.3231676112467445,
    "lat": 48.85849912278188,
    "nom_gares": "Solférino",
    "station_id": "0338",
    "line_number": "12",
    "is_end": "False",
    "connection": "0"
  },
  {
    "lon": 2.3608035032752683,
    "lat": 48.86651446080855,
    "nom_gares": "Temple",
    "station_id": "0350",
    "line_number": "3",
    "is_end": "False",
    "connection": "0"
  },
  {
    "lon": 2.288022141100324,
    "lat": 48.83244909820875,
    "nom_gares": "Porte de Versailles",
    "station_id": "0274",
    "line_number": "12",
    "is_end": "False",
    "connection": "0"
  },
  {
    "lon": 2.385316215101792,
    "lat": 48.87388185322374,
    "nom_gares": "Pyrénées",
    "station_id": "0283",
    "line_number": "11",
    "is_end": "False",
    "connection": "0"
  },
  {
    "lon": 2.3534957414911455,
    "lat": 48.861204989395915,
    "nom_gares": "Rambuteau",
    "station_id": "0290",
    "line_number": "11",
    "is_end": "False",
    "connection": "0"
  },
  {
    "lon": 2.364636482504226,
    "lat": 48.945867271208414,
    "nom_gares": "Saint-Denis - Université",
    "station_id": "0319",
    "line_number": "13",
    "is_end": "True",
    "connection": "1"
  },
  {
    "lon": 2.3144081214724865,
    "lat": 48.85144170650579,
    "nom_gares": "Saint-François-Xavier",
    "station_id": "0321",
    "line_number": "13",
    "is_end": "False",
    "connection": "0"
  },
  {
    "lon": 2.321257862893747,
    "lat": 48.84881637243505,
    "nom_gares": "Vaneau",
    "station_id": "0358",
    "line_number": "10",
    "is_end": "False",
    "connection": "0"
  },
  {
    "lon": 2.301107516242396,
    "lat": 48.83951658446791,
    "nom_gares": "Vaugirard",
    "station_id": "0360",
    "line_number": "12",
    "is_end": "False",
    "connection": "0"
  },
  {
    "lon": 2.329008926235402,
    "lat": 48.84221841267896,
    "nom_gares": "Vavin",
    "station_id": "0361",
    "line_number": "4",
    "is_end": "False",
    "connection": "2"
  },
  {
    "lon": 2.2841744482709228,
    "lat": 48.930757003301366,
    "nom_gares": "Les Courtilles",
    "station_id": "383",
    "line_number": "13",
    "is_end": "True",
    "connection": "2"
  },
  {
    "lon": 2.365920319400959,
    "lat": 48.90656714504601,
    "nom_gares": "Front Populaire",
    "station_id": "384",
    "line_number": "12",
    "is_end": "False",
    "connection": "0"
  },
  {
    "lon": 2.337164539445146,
    "lat": 48.882249532253695,
    "nom_gares": "Pigalle",
    "station_id": "0238",
    "line_number": "12",
    "is_end": "False",
    "connection": "0"
  },
  {
    "lon": 2.337164539445146,
    "lat": 48.882249532253695,
    "nom_gares": "Pigalle",
    "station_id": "0239",
    "line_number": "2",
    "is_end": "False",
    "connection": "0"
  },
  {
    "lon": 2.408089407236094,
    "lat": 48.84733558368036,
    "nom_gares": "Porte de Vincennes",
    "station_id": "0275",
    "line_number": "1",
    "is_end": "False",
    "connection": "0"
  },
  {
    "lon": 2.398468172268172,
    "lat": 48.88027195609515,
    "nom_gares": "Pré Saint-Gervais",
    "station_id": "0280",
    "line_number": "7bis",
    "is_end": "True",
    "connection": "0"
  },
  {
    "lon": 2.3258155665115288,
    "lat": 48.855196323880406,
    "nom_gares": "Rue du Bac",
    "station_id": "0308",
    "line_number": "12",
    "is_end": "False",
    "connection": "0"
  },
  {
    "lon": 2.363953196602165,
    "lat": 48.80468811997663,
    "nom_gares": "Villejuif - Léo Lagrange",
    "station_id": "0364",
    "line_number": "7",
    "is_end": "False",
    "connection": "2"
  },
  {
    "lon": 2.2664415417194004,
    "lat": 48.84520470264663,
    "nom_gares": "Chardon Lagache",
    "station_id": "0052",
    "line_number": "10",
    "is_end": "False",
    "connection": "0"
  },
  {
    "lon": 2.4044090887818634,
    "lat": 48.91494975634199,
    "nom_gares": "Fort d'Aubervilliers",
    "station_id": "0108",
    "line_number": "7",
    "is_end": "False",
    "connection": "0"
  },
  {
    "lon": 2.277083018415724,
    "lat": 48.87146657720145,
    "nom_gares": "Porte Dauphine",
    "station_id": "0256",
    "line_number": "2",
    "is_end": "True",
    "connection": "0"
  },
  {
    "lon": 2.380020644247982,
    "lat": 48.85787849393227,
    "nom_gares": "Voltaire",
    "station_id": "0369",
    "line_number": "9",
    "is_end": "False",
    "connection": "0"
  },
  {
    "lon": 2.3301298771128605,
    "lat": 48.864343777799434,
    "nom_gares": "Tuileries",
    "station_id": "0356",
    "line_number": "1",
    "is_end": "False",
    "connection": "0"
  },
  {
    "lon": 2.3151768973047835,
    "lat": 48.889560827381025,
    "nom_gares": "Pont Cardinet",
    "station_id": "385",
    "line_number": "14",
    "is_end": "False",
    "connection": "0"
  },
  {
    "lon": 2.3446670737483,
    "lat": 48.88297276689289,
    "nom_gares": "Anvers",
    "station_id": "0005",
    "line_number": "2",
    "is_end": "False",
    "connection": "0"
  },
  {
    "lon": 2.4127630445476265,
    "lat": 48.8931499848255,
    "nom_gares": "Église de Pantin",
    "station_id": "0374",
    "line_number": "5",
    "is_end": "False",
    "connection": "0"
  },
  {
    "lon": 2.322001788877925,
    "lat": 48.87447567571325,
    "nom_gares": "Saint-Augustin",
    "station_id": "0317",
    "line_number": "9",
    "is_end": "False",
    "connection": "0"
  },
  {
    "lon": 2.4642800705433565,
    "lat": 48.76881073327119,
    "nom_gares": "Créteil - Pointe du Lac",
    "station_id": "386",
    "line_number": "8",
    "is_end": "True",
    "connection": "0"
  }
]